City,Country,Lat,Lng,Date,Temperature,Max_Temperature,Min_Temperature,Humidity,Cloudiness,Wind Speed
jamestown,AU,-33.21,138.6,1572484639,300.85,300.85,300.85,22,4,8.13
bluff,AU,-23.58,149.07,1572484651,298.42,298.42,298.42,44,55,5.3
bredasdorp,ZA,-34.53,20.04,1572484651,281.7,282.04,281.15,87,53,1.73
hermanus,ZA,-34.42,19.24,1572484651,284.17,285.93,282.04,95,20,0.45
darhan,MN,49.49,105.92,1572484651,271.8,271.8,271.8,69,6,0.62
mawlamyine,MM,16.49,97.63,1572484651,297.68,297.68,297.68,86,22,3.77
krasnyy chikoy,RU,50.36,108.75,1572484652,266.89,266.89,266.89,83,0,0.74
vodstroy,RU,48.84,44.56,1572484652,269.89,270.15,269.82,79,0,5
ushuaia,AR,-54.81,-68.31,1572484652,285.15,285.15,285.15,40,75,2.6
butaritari,KI,3.07,172.79,1572484652,302.07,302.07,302.07,73,88,5.98
ponta do sol,BR,-20.63,-46,1572484652,292.21,292.21,292.21,94,99,2.99
bandar-e lengeh,IR,26.56,54.88,1572484653,299.15,299.15,299.15,83,0,3.1
rikitea,PF,-23.12,-134.97,1572484653,295.11,295.11,295.11,70,20,2.35
seoul,KR,37.57,126.98,1572483828,284.85,288.15,282.15,87,75,0.5
libreville,GA,0.39,9.45,1572484169,297.38,297.38,297.38,92,100,3.05
sorland,NO,67.67,12.69,1572484653,279.41,279.41,279.41,76,100,12.68
hamilton,CA,43.26,-79.87,1572484653,280.53,283.15,278.15,100,90,4.6
punta arenas,CL,-53.16,-70.91,1572484653,283.9,284.15,283.71,53,100,3.1
antalaha,MG,-14.9,50.28,1572484654,298.65,298.65,298.65,79,26,5.36
vaini,IN,15.34,74.49,1572484654,294.15,294.15,294.15,94,75,3.1
albany,US,42.65,-73.75,1572484506,286.92,288.71,285.37,93,90,1.73
hobart,AU,-42.88,147.33,1572484437,295.34,296.48,294.15,46,75,3.1
vila do maio,CV,15.13,-23.22,1572484654,299.15,299.15,299.15,61,0,4.6
carnarvon,ZA,-30.97,22.13,1572484654,281.84,281.84,281.84,54,0,6.5
quatre cocos,MU,-20.21,57.76,1572484654,294.01,295.15,293.15,78,20,1.5
provideniya,RU,64.42,-173.23,1572484655,273.15,273.15,273.15,82,40,2
nikolskoye,RU,59.7,30.79,1572484655,268.21,269.82,265.93,92,40,1
leningradskiy,RU,69.38,178.42,1572484655,262.73,262.73,262.73,68,6,1.95
jardim,BR,-21.48,-56.15,1572484655,302.58,302.58,302.58,35,76,0.42
mawlaik,MM,23.63,94.42,1572484655,293.5,293.5,293.5,99,65,0.39
dikson,RU,73.51,80.55,1572484655,255.21,255.21,255.21,89,62,2.49
harper,US,30.3,-99.24,1572484656,277.78,279.15,276.48,86,90,7.7
vila franca do campo,PT,37.72,-25.43,1572484656,295.15,295.15,295.15,88,20,9.3
torbay,CA,47.66,-52.73,1572484656,275.57,277.59,273.15,100,20,3.6
ilulissat,GL,69.22,-51.1,1572484604,268.15,268.15,268.15,67,90,2.45
severo-kurilsk,RU,50.68,156.12,1572484656,277,277,277,98,100,5.99
inirida,CO,3.87,-67.92,1572484656,297.91,297.91,297.91,87,63,0.41
coquimbo,CL,-29.95,-71.34,1572484657,286.15,286.15,286.15,82,68,2.1
mbini,GQ,1.58,9.62,1572484657,297.15,297.15,297.15,100,40,1.5
souillac,FR,45.6,-0.6,1572484657,288.15,288.15,288.15,100,100,3.1
borovoy,RU,63.23,52.89,1572484657,265.51,265.51,265.51,96,12,1.65
narsaq,GL,60.91,-46.05,1572484657,274.15,274.15,274.15,80,100,2.1
bosobolo,CD,4.19,19.88,1572484657,295.09,295.09,295.09,88,76,0.68
bambous virieux,MU,-20.34,57.76,1572484658,293.95,295.15,293.15,78,20,1.5
hilo,US,19.71,-155.08,1572484658,297.61,300.15,295.93,74,75,5.1
biak,ID,-0.91,122.88,1572484658,300.25,300.25,300.25,74,37,4.32
tuktoyaktuk,CA,69.44,-133.03,1572484658,272.15,272.15,272.15,92,75,11.3
turbat,PK,26,63.05,1572484658,298.42,298.42,298.42,72,3,0.05
penzance,GB,50.12,-5.53,1572484658,286.03,286.48,285.37,100,100,8.7
wenling,CN,28.38,121.38,1572484658,291.23,292.04,290.37,79,0,0.45
bambanglipuro,ID,-7.95,110.28,1572484659,299.55,299.55,299.55,70,47,2.75
cape town,ZA,-33.93,18.42,1572484519,287.05,287.59,286.48,67,0,6.7
kruisfontein,ZA,-34,24.73,1572484659,283.49,283.49,283.49,92,9,2.91
puerto ayora,EC,-0.74,-90.35,1572484659,295.79,297.15,293.71,69,20,6.2
gander,CA,48.95,-54.61,1572484659,278.7,279.15,278.15,75,40,3.1
jha jha,IN,24.77,86.37,1572484659,293.49,293.49,293.49,77,61,2.38
ujjain,IN,23.17,75.79,1572484659,296.15,296.15,296.15,83,40,1.5
flinders,AU,-34.58,150.85,1572484660,298.88,304.26,294.82,36,8,3.1
new norfolk,AU,-42.78,147.06,1572484660,296.46,298.15,294.15,46,75,3.1
tilichiki,RU,60.47,166.1,1572484660,269.34,269.34,269.34,79,0,1.67
cabo san lucas,MX,22.89,-109.91,1572484660,297.95,299.82,295.93,78,20,2.1
lebu,ET,8.96,38.73,1572484660,285.15,285.15,285.15,50,11,2.1
santa cruz,BR,-6.22,-36.02,1572484660,294.4,294.4,294.4,83,9,3.76
batticaloa,LK,7.71,81.69,1572484660,296.97,296.97,296.97,91,97,1.21
marrakesh,MA,31.63,-7.99,1572484660,292.15,292.15,292.15,63,11,2.1
fare,PF,-16.7,-151.02,1572484661,299.69,299.69,299.69,78,24,7.26
chalchihuites,MX,23.48,-103.88,1572484661,288.88,288.88,288.88,37,0,2.71
aksu,KZ,52.04,76.93,1572484661,274.15,274.15,274.15,100,69,3
mena,UA,51.52,32.22,1572484661,269.48,269.48,269.48,75,0,2.21
ribeira grande,PT,38.52,-28.7,1572484661,292.58,292.58,292.58,91,78,10.47
petropavlovsk-kamchatskiy,RU,53.05,158.65,1572484661,277.15,277.15,277.15,86,75,1
piterka,RU,50.68,47.44,1572484661,273.51,273.51,273.51,67,27,7.41
ambilobe,MG,-13.19,49.05,1572484661,295.25,295.25,295.25,85,56,2.88
ilorin,NG,8.5,4.55,1572484662,297.2,297.2,297.2,86,100,2.47
lagoa,PT,37.14,-8.45,1572484662,292.5,293.15,292.04,93,40,3.1
mandali,IQ,33.75,45.55,1572484662,294.01,294.01,294.01,48,0,4.53
san patricio,PY,-26.98,-56.83,1572484662,305.27,305.27,305.27,40,13,1.27
georgetown,GY,6.8,-58.16,1572484662,298.92,300.15,297.15,100,20,2.1
upernavik,GL,72.79,-56.15,1572484662,268.52,268.52,268.52,83,100,2.96
mar del plata,AR,-46.43,-67.52,1572484404,288.51,288.51,288.51,35,82,5.33
yellowknife,CA,62.45,-114.38,1572484507,269.73,270.15,269.26,100,90,1
anzio,IT,41.45,12.63,1572484663,286.82,289.26,284.26,93,5,1
nevers,FR,46.99,3.16,1572484663,285.1,285.37,284.82,93,90,2.6
merrill,US,42.03,-121.6,1572484663,280.76,282.15,279.26,14,1,2.1
barrow,AR,-38.31,-60.23,1572484663,282.01,282.01,282.01,64,0,1.96
manado,ID,1.49,124.85,1572484663,304.15,304.15,304.15,58,20,0.5
sao filipe,CV,14.9,-24.5,1572484663,299.54,299.54,299.54,66,0,2.86
chokurdakh,RU,70.62,147.9,1572484664,251.83,251.83,251.83,96,71,4.16
morehead,US,38.18,-83.43,1572484411,290.03,291.15,287.59,93,90,3.6
fairbanks,US,64.84,-147.72,1572484664,269.93,271.15,268.71,86,90,5.7
namatanai,PG,-3.66,152.44,1572484664,302.03,302.03,302.03,69,44,1.25
busselton,AU,-33.64,115.35,1572484664,282.03,282.59,281.48,91,90,1.34
saint-nazaire,FR,47.27,-2.21,1572484665,288.48,289.15,287.59,93,90,6.2
qaanaaq,GL,77.48,-69.36,1572484665,260.4,260.4,260.4,78,100,4.08
mataura,NZ,-46.19,168.86,1572484665,284.82,284.82,284.82,74,96,8.49
bhatkal,IN,13.97,74.57,1572484665,297.88,297.88,297.88,85,94,4.23
caravelas,BR,-17.73,-39.27,1572484665,295.83,295.83,295.83,91,4,3.44
tandil,AR,-37.33,-59.14,1572484433,287.3,287.59,287.04,42,0,4.47
bethel,US,60.79,-161.76,1572484665,273.16,274.15,272.15,68,1,6.7
saskylakh,RU,71.97,114.09,1572484666,255.1,255.1,255.1,92,100,3.72
broome,GB,52.47,1.45,1572484666,279.25,282.59,275.93,87,95,3.1
lasa,CY,34.92,32.53,1572484666,289.72,290.15,289.15,82,51,4.1
pevek,RU,69.7,170.27,1572484666,261.61,261.61,261.61,70,99,4.58
vila velha,BR,-3.71,-38.6,1572484666,299.21,299.26,299.15,74,20,4.1
mitsamiouli,KM,-11.38,43.28,1572484667,299.22,299.22,299.22,78,0,3.53
beringovskiy,RU,63.05,179.32,1572484667,270.44,270.44,270.44,49,27,1.02
katoro,TZ,-3,31.93,1572484667,291,291,291,92,39,0.61
itarema,BR,-2.92,-39.92,1572484667,297.32,297.32,297.32,81,13,3.62
almaznyy,RU,48.03,40.04,1572484667,271.15,271.15,271.15,86,0,2
east london,ZA,-33.02,27.91,1572484667,288.8,288.8,288.8,72,30,5.4
at-bashi,KG,41.17,75.81,1572484667,270.07,270.07,270.07,71,95,0.86
victoria,BN,5.28,115.24,1572484451,300.5,301.15,299.82,88,75,1
zwedru,LR,6.07,-8.13,1572484667,295.16,295.16,295.16,99,100,1.26
leh,IN,34.16,77.58,1572484668,269.81,269.81,269.81,56,75,1.82
kabompo,ZM,-13.6,24.21,1572484668,291.02,291.02,291.02,90,49,1.22
lamu,CN,35.77,102.37,1572484668,271.02,271.02,271.02,91,99,1.34
conakry,GN,9.52,-13.7,1572484668,299.78,299.78,299.78,84,60,1.55
hokitika,NZ,-42.72,170.96,1572484668,284.99,284.99,284.99,70,94,8.84
scarborough,GB,54.28,-0.41,1572484668,278.95,282.04,275.37,81,0,2.6
faanui,PF,-16.48,-151.75,1572484668,299.76,299.76,299.76,79,29,7.48
dingle,PH,11,122.67,1572484669,299.73,299.73,299.73,84,89,4.8
lompoc,US,34.64,-120.46,1572484582,290.94,293.71,288.15,55,1,2.1
hithadhoo,MV,-0.6,73.08,1572484669,300.42,300.42,300.42,79,100,5.16
naze,NG,5.43,7.07,1572484669,296.2,296.2,296.2,96,100,1.67
guerrero negro,MX,27.97,-114.04,1572484669,298.77,298.77,298.77,29,29,3.01
henties bay,NA,-22.12,14.28,1572484669,288.15,288.15,288.15,84,5,1.34
mnogovershinnyy,RU,53.94,139.92,1572484669,274.28,274.28,274.28,97,100,3
bonavista,CA,48.65,-53.11,1572484670,276.48,276.48,276.48,88,53,4.48
chuy,UY,-33.69,-53.46,1572484670,287.93,287.93,287.93,87,89,6.81
alice springs,AU,-23.7,133.88,1572484407,305.15,305.15,305.15,8,0,2.6
atuona,PF,-9.8,-139.03,1572484670,299.65,299.65,299.65,76,30,7.44
sept-iles,CA,50.2,-66.38,1572484447,275.85,277.04,275.15,80,75,2.6
chumikan,RU,54.72,135.31,1572484670,272.69,272.69,272.69,73,63,0.4
athabasca,CA,54.72,-113.29,1572484670,273.41,273.41,273.41,70,100,3.95
san quintin,PH,17.54,120.52,1572484671,298.38,298.38,298.38,78,51,1.52
kodiak,US,39.95,-94.76,1572484671,271.78,272.59,270.93,86,90,5.7
grindavik,IS,63.84,-22.43,1572484671,279.15,279.15,279.15,100,90,6.2
mendoza,AR,-32.89,-68.84,1572484671,290.15,290.15,290.15,51,12,1
airai,TL,-8.93,125.41,1572484671,299.63,299.63,299.63,39,38,2.7
biltine,TD,14.53,20.93,1572484672,298.51,298.51,298.51,15,0,6.17
humaita,AR,-24.93,-65.37,1572484672,292.02,293.15,291.15,82,90,3.6
motygino,RU,58.18,94.69,1572484672,269.65,269.65,269.65,95,100,1.72
smidovich,RU,48.6,133.81,1572484672,277.24,277.24,277.24,81,100,4.85
tadine,NC,-21.55,167.88,1572484672,296.67,296.67,296.67,57,57,7.53
matay,EG,28.42,30.79,1572484672,290.29,290.29,290.29,77,0,3.64
rorvik,NO,64.86,11.24,1572484672,278.71,278.71,278.71,80,100,1.79
monrovia,LR,6.33,-10.8,1572484672,297.15,297.15,297.15,94,75,3.05
saint george,GR,39.45,22.34,1572484673,289.52,290.15,288.15,93,90,1.48
richards bay,ZA,-28.77,32.06,1572484673,294.39,294.39,294.39,76,48,3.24
yulara,AU,-25.24,130.99,1572484673,308.15,308.15,308.15,5,0,5.7
dunedin,NZ,-45.87,170.5,1572484672,285.93,285.93,285.93,40,47,10.73
bara,NG,10.41,10.6,1572484673,297.57,297.57,297.57,52,32,0.7
port keats,AU,-14.25,129.55,1572484673,303.83,303.83,303.83,54,74,3.29
saint-philippe,CA,45.36,-73.48,1572484674,284.74,287.15,283.15,93,90,1.5
lazaro cardenas,MX,28.39,-105.62,1572484674,291.78,292.15,291.48,29,40,8.7
tiksi,RU,71.64,128.87,1572484674,253.75,253.75,253.75,94,0,0.68
atar,MR,20.52,-13.05,1572484674,300.15,300.15,300.15,18,0,3.7
maceio,BR,-9.67,-35.74,1572484503,296.15,296.15,296.15,88,40,2.6
key west,US,47.93,-96.78,1572484674,270.05,270.37,269.26,68,75,1.81
esperance,AU,-33.86,121.89,1572484675,287.15,287.15,287.15,58,90,12.3
ancud,CL,-41.87,-73.83,1572484675,282.15,282.15,282.15,81,20,4.1
medvezhyegorsk,RU,62.92,34.47,1572484675,266.55,266.55,266.55,90,0,1.78
coruripe,BR,-10.12,-36.18,1572484675,298.55,298.55,298.55,80,22,4.97
pokhara,NP,28.21,83.99,1572484675,288.04,288.04,288.04,82,13,1.27
padang,ID,-0.92,100.36,1572484675,293.68,293.68,293.68,98,96,0.32
ahuimanu,US,21.44,-157.84,1572484675,299.76,302.15,297.15,83,90,3.1
la ronge,CA,55.1,-105.3,1572484676,271.15,271.15,271.15,68,90,2.6
trairi,BR,-3.28,-39.27,1572484676,295.85,295.85,295.85,85,14,2.31
westport,US,41.14,-73.36,1572484676,289.19,290.37,288.15,93,90,3.5
amethi,IN,26.76,81.16,1572484676,293.15,293.15,293.15,94,90,1.72
weihe,CN,32.99,105.33,1572484676,282.95,282.95,282.95,75,95,0.58
kapaa,US,22.08,-159.32,1572484676,299.1,301.15,297.04,78,40,2.6
tulun,RU,54.56,100.58,1572484677,271.4,271.4,271.4,73,96,3.9
port alfred,ZA,-33.59,26.89,1572484677,287.59,287.59,287.59,86,14,1.34
pyryatyn,UA,50.24,32.51,1572484677,271.21,271.21,271.21,60,0,1.64
salalah,OM,17.01,54.1,1572484677,298.15,298.15,298.15,57,63,2.1
mahebourg,MU,-20.41,57.7,1572484677,293.91,295.15,293.15,78,20,1.5
batagay-alyta,RU,67.8,130.41,1572484677,251.73,251.73,251.73,82,44,1.55
pavlogradka,RU,54.2,73.56,1572484677,274.51,274.51,274.51,90,100,5.27
paramirim,BR,-13.44,-42.24,1572484678,294.99,294.99,294.99,45,79,5.11
awjilah,LY,29.14,21.3,1572484678,294.14,294.14,294.14,41,17,4.02
palauig,PH,15.44,119.9,1572484678,299.67,299.67,299.67,67,60,0.63
labuhan,ID,-2.54,115.51,1572484678,300.44,300.44,300.44,69,68,0.54
karakol,KG,42.49,78.39,1572484678,277.95,277.95,277.95,32,57,1.19
ostuacan,MX,17.42,-93.3,1572484678,298.61,298.61,298.61,89,34,1.68
sola,TZ,-3.17,33.8,1572484678,293.75,293.75,293.75,75,55,0.82
katsuura,JP,33.93,134.5,1572484679,292.15,292.15,292.15,68,75,3.1
urucara,BR,-2.54,-57.76,1572484679,301.27,301.27,301.27,63,78,0.91
saldanha,PT,41.42,-6.55,1572484679,286.34,286.34,286.34,97,100,1.61
paamiut,GL,61.99,-49.67,1572484679,275.29,275.29,275.29,85,100,4.83
cairns,AU,-16.92,145.77,1572484435,300.25,301.48,298.71,61,90,3.6
xining,CN,36.62,101.77,1572484679,275.24,275.24,275.24,49,100,0.67
nome,US,30.04,-94.42,1572484679,286.03,289.15,284.15,93,90,6.2
kamaishi,JP,39.28,141.86,1572484679,287.15,287.15,287.15,71,20,2.1
sao joao da barra,BR,-21.64,-41.05,1572484680,297.18,297.18,297.18,86,67,11.06
cap-aux-meules,CA,47.38,-61.86,1572484680,282.15,282.15,282.15,93,20,4.6
oksfjord,NO,70.24,22.35,1572484680,266.21,269.15,264.82,73,90,2.6
port elizabeth,US,39.31,-74.98,1572484680,289.76,290.37,289.15,93,90,1.5
kavaratti,IN,10.57,72.64,1572484680,298.79,298.79,298.79,89,100,18.53
katherine,AU,-14.47,132.26,1572484680,305.15,305.15,305.15,49,40,5.1
ishigaki,JP,24.34,124.16,1572484681,300.15,300.15,300.15,78,40,9.3
grand forks,US,47.91,-97.06,1572484657,270.16,270.37,269.82,68,75,1.81
nanakuli,US,21.39,-158.15,1572484681,299.75,302.15,297.15,78,90,4.1
launceston,AU,-41.43,147.14,1572484681,292.66,293.15,292.15,55,100,4.1
tashtagol,RU,52.76,87.85,1572484681,276.86,276.86,276.86,87,100,2.48
vadso,NO,70.07,29.75,1572484681,262.25,265.15,259.15,84,11,5.7
sao jose da coroa grande,BR,-8.9,-35.15,1572484681,299.15,299.15,299.15,77,69,5.6
kijang,KR,35.24,129.21,1572484488,289.15,289.15,289.15,55,0,3.1
alofi,NU,-19.06,-169.92,1572484682,299.15,299.15,299.15,78,75,5.1
port macquarie,AU,-31.43,152.91,1572484682,298.29,298.71,298.15,47,40,4.6
anadyr,RU,64.73,177.51,1572484682,265.15,265.15,265.15,78,75,2
putyatino,RU,54.16,41.12,1572484682,270.14,270.14,270.14,71,100,6.38
tuatapere,NZ,-46.13,167.69,1572484682,284.82,284.82,284.82,74,100,8.49
vila,IT,45.18,8.4,1572484682,284.49,285.37,282.59,76,90,2.6
jumla,NP,29.28,82.18,1572484683,275.58,275.58,275.58,67,0,1.99
caconda,AO,-13.73,15.06,1572484683,289.72,289.72,289.72,80,71,0.86
avarua,CK,-21.21,-159.78,1572484683,298.15,298.15,298.15,94,100,10.8
the valley,AI,18.22,-63.06,1572484683,300.51,300.93,300.15,74,20,3.1
jamame,SO,0.07,42.75,1572484683,300.24,300.24,300.24,84,100,4.41
puerto leguizamo,CO,-0.19,-74.78,1572484683,296.63,296.63,296.63,97,72,0.56
huangnihe,CN,43.56,128.02,1572484684,280.22,280.22,280.22,73,0,7.6
tigzirt,DZ,36.57,4.2,1572484684,286.86,286.86,286.86,70,24,0.76
barabinsk,RU,55.35,78.35,1572484684,270.91,270.91,270.91,92,100,3.1
smolensk,RU,54.79,32.05,1572484684,269.72,269.72,269.72,80,0,2.42
aykhal,RU,65.95,111.51,1572484684,260.15,260.15,260.15,92,90,2
castro,CL,-42.48,-73.76,1572484685,282.15,282.15,282.15,81,20,4.1
nhulunbuy,AU,-12.18,136.78,1572484685,303.15,303.15,303.15,62,75,5.1
diu,IN,20.71,70.98,1572484685,301.63,301.63,301.63,78,99,7.01
kondinskoye,RU,59.65,67.41,1572484685,262.35,262.35,262.35,86,5,0.65
kot samaba,PK,28.55,70.47,1572484685,296.98,296.98,296.98,29,0,1.95
vao,EE,59.1,26.19,1572484685,271.29,271.29,271.29,87,43,3.11
sitrah,BH,26.15,50.62,1572484685,301.07,302.15,300.15,74,0,2.1
omsukchan,RU,62.53,155.8,1572484686,267.62,267.62,267.62,93,100,3.08
sultepec,MX,20.14,-98.35,1572484686,287.25,287.25,287.25,93,49,2.88
mumford,GH,5.26,-0.76,1572484686,296.26,296.26,296.26,95,22,0.78
sobolevo,RU,54.43,31.9,1572484686,269.87,269.87,269.87,82,0,3.03
ust-karsk,RU,52.71,118.82,1572484686,266.33,266.33,266.33,55,3,4.69
baruun-urt,MN,46.68,113.28,1572484686,274.59,274.59,274.59,63,31,3.14
comodoro rivadavia,AR,-45.87,-67.48,1572484686,286.15,286.15,286.15,54,77,1.5
sitka,US,37.17,-99.65,1572484687,268.15,268.15,268.15,78,87,6.71
nanortalik,GL,60.14,-45.24,1572484687,275.92,275.92,275.92,83,100,6.95
talara,PE,-4.58,-81.27,1572484687,291.38,291.38,291.38,87,68,7.06
hofn,IS,64.25,-15.21,1572484687,281.15,281.15,281.15,81,53,9.27
serafimovich,RU,49.58,42.73,1572484687,270.93,270.93,270.93,80,0,2.24
mutsu,JP,41.29,141.2,1572484688,288.84,290.93,287.15,76,75,3.6
salta,AR,-24.79,-65.41,1572484531,292.01,293.15,291.15,82,90,3.6
fortuna,US,40.6,-124.16,1572484688,286.43,290.15,282.59,24,1,4.1
rio gallegos,AR,-51.62,-69.22,1572484688,285.15,285.15,285.15,46,100,6.2
hailar,CN,49.2,119.7,1572484688,270.57,270.57,270.57,59,4,10.29
beisfjord,NO,68.38,17.6,1572484688,271.15,271.15,271.15,100,96,3.1
mersing,MY,2.43,103.84,1572484688,300.52,300.52,300.52,74,54,2.39
ust-nera,RU,64.57,143.24,1572484688,259.91,259.91,259.91,90,100,0.92
manica,MZ,-18.94,32.88,1572484689,295.15,295.15,295.15,94,40,2.52
sabya,SA,17.15,42.62,1572484689,303.15,303.15,303.15,70,20,2.25
longyearbyen,NO,78.22,15.63,1572484689,261.15,261.15,261.15,78,100,0.5
ilebo,CD,-4.33,20.59,1572484689,292.83,292.83,292.83,99,35,0.34
quang ngai,VN,15.12,108.8,1572484689,300.46,300.46,300.46,81,100,14.86
northam,AU,-31.65,116.67,1572484689,290.15,290.15,290.15,51,40,8.7
plettenberg bay,ZA,-34.05,23.37,1572484689,285.28,285.28,285.28,85,6,2.65
albertville,FR,45.68,6.39,1572484689,281.86,286.15,275.37,93,75,1
gizo,IL,31.8,34.94,1572484690,289.06,292.59,285.93,82,0,1.5
chandbali,IN,20.77,86.74,1572484690,294.88,294.88,294.88,88,48,0.76
kavieng,PG,-2.57,150.8,1572484690,302.35,302.35,302.35,65,44,0.96
namibe,AO,-15.19,12.15,1572484690,295.31,295.31,295.31,83,25,3.86
pacifica,US,37.61,-122.49,1572484452,290.36,293.15,287.04,17,1,4.6
belmonte,PT,40.36,-7.35,1572484690,288.58,290.37,287.59,95,100,1.77
mogeiro,BR,-7.3,-35.48,1572484690,296.15,296.15,296.15,94,40,2.1
north bend,US,43.41,-124.22,1572484690,284.84,287.04,283.15,71,1,3.1
kulhudhuffushi,MV,6.62,73.07,1572484691,300.75,300.75,300.75,77,100,5.77
ahipara,NZ,-35.17,173.16,1572484691,295.93,295.93,295.93,66,34,9.16
san policarpo,PH,12.18,125.51,1572484691,300.98,300.98,300.98,80,93,2.09
lubin,PL,51.4,16.21,1572484691,269.67,270.93,267.59,100,90,1.36
lakselv,NO,70.05,24.96,1572484691,265.44,266.15,264.82,85,20,10.8
ankpa,NG,7.37,7.63,1572484691,295.25,295.25,295.25,93,92,2.12
bay roberts,CA,47.58,-53.28,1572484692,275.57,277.59,273.15,100,20,3.6
sinnamary,GF,5.38,-52.96,1572484692,301.37,301.37,301.37,76,0,8.52
vanimo,PG,-2.67,141.3,1572484692,300.86,300.86,300.86,79,92,4.08
tasiilaq,GL,65.61,-37.64,1572484692,272.15,272.15,272.15,58,70,1.5
cayenne,GF,4.94,-52.33,1572484692,300.15,300.15,300.15,83,0,1.5
talnakh,RU,69.49,88.39,1572484692,265.15,265.15,265.15,92,75,9
santa lucia,IT,41.98,12.66,1572484692,286.83,290.15,284.26,93,0,1
sinop,TR,42.03,35.15,1572484693,287.28,287.28,287.28,89,100,6.13
luanda,AO,-8.83,13.24,1572484576,298.15,298.15,298.15,83,75,2.6
vilhena,BR,-12.74,-60.15,1572484693,297.72,297.72,297.72,67,93,0.79
keti bandar,PK,24.14,67.45,1572484693,300.72,300.72,300.72,71,100,1.1
sheregesh,RU,52.93,87.98,1572484693,276.86,276.86,276.86,87,100,2.48
constitucion,MX,23.99,-104.67,1572484693,293.33,294.15,292.59,21,5,4.6
yenagoa,NG,4.92,6.26,1572484693,297.34,297.34,297.34,93,93,1.31
samarai,PG,-10.62,150.67,1572484693,298.29,298.29,298.29,90,90,2.64
noumea,NC,-22.28,166.46,1572484694,299.15,299.15,299.15,44,90,9.8
lavrentiya,RU,65.58,-170.99,1572484694,270.06,270.06,270.06,67,0,3.61
san borja,BO,-14.86,-66.75,1572484694,304.13,304.13,304.13,51,99,1.99
chifeng,CN,42.27,118.96,1572484694,280.87,280.87,280.87,48,4,3.09
pelotas,BR,-31.77,-52.34,1572484694,294.66,294.66,294.66,99,100,1.66
nuuk,GL,64.17,-51.74,1572484694,274.97,275.15,274.82,74,100,3.1
bolu,TR,40.73,31.61,1572484694,279.91,279.91,279.91,83,28,0.43
sisimiut,GL,66.94,-53.67,1572484695,269.35,269.35,269.35,69,96,5.5
touros,BR,-5.2,-35.46,1572484695,296.15,296.15,296.15,83,20,2.1
cabedelo,BR,-6.97,-34.84,1572484695,296.15,296.15,296.15,94,40,2.1
saint-joseph,FR,43.56,6.97,1572484695,288.74,289.82,288.15,93,75,1
illela,NG,12.25,4.3,1572484695,299.78,299.78,299.78,63,22,3.48
serenje,ZM,-13.23,30.22,1572484695,290.16,290.16,290.16,35,0,1.2
basag,PH,8.92,125.62,1572484695,299.82,299.82,299.82,77,71,0.75
cidreira,BR,-30.17,-50.22,1572484696,294.8,294.8,294.8,91,100,9.3
poum,MK,41.28,20.71,1572484696,284.04,284.04,284.04,62,100,1.01
marawi,PH,8,124.29,1572484696,301.48,301.48,301.48,77,51,1.34
londonderry,US,42.87,-71.37,1572484696,287.24,288.15,286.48,93,90,2.6
coihaique,CL,-45.58,-72.07,1572484696,281.15,281.15,281.15,70,72,3.6
bulgan,MN,48.81,103.53,1572484696,273.04,273.04,273.04,79,0,1.7
canutama,BR,-6.53,-64.38,1572484697,296.26,296.26,296.26,98,92,1.88
fort frances,CA,48.61,-93.4,1572484432,269.41,269.82,269.15,68,90,2.6
ngorongoro,TZ,-3.24,35.49,1572484697,290.83,290.83,290.83,73,0,1.4
manuk mangkaw,PH,4.8,119.85,1572484697,301.29,301.29,301.29,74,79,0.93
rafai,CF,4.95,23.92,1572484697,294.51,294.51,294.51,83,99,0.38
benguela,AO,-12.58,13.4,1572484697,297.07,297.07,297.07,84,58,2.15
altamira,BR,-3.2,-52.21,1572484697,296.83,296.83,296.83,92,35,0.48
isangel,VU,-19.55,169.27,1572484697,299.15,299.15,299.15,50,75,5.1
nakapiripirit,UG,1.81,34.71,1572484698,294.09,294.09,294.09,63,82,1.74
isa khel,AF,36.67,68.84,1572484698,286.96,286.96,286.96,58,80,0.7
curup,ID,-3.47,102.53,1572484698,293.04,293.04,293.04,95,94,0.35
sambava,MG,-14.27,50.17,1572484698,293.68,293.68,293.68,91,26,1.26
kyaikkami,MM,16.08,97.57,1572484698,299.7,299.7,299.7,84,18,4.64
canchungo,GW,12.07,-16.03,1572484698,295.15,295.15,295.15,94,59,0.45
okhotsk,RU,59.36,143.24,1572484698,273.7,273.7,273.7,85,100,4.11
corinto,CO,3.17,-76.26,1572484698,296.15,296.15,296.15,78,20,4.1
kucove,AL,40.8,19.92,1572484699,287.82,287.82,287.82,65,94,0.97
rio grande,BR,-32.03,-52.1,1572484699,293.89,293.89,293.89,96,100,4.18
viedma,AR,-40.81,-62.99,1572484699,285.54,285.54,285.54,34,0,4.93
nieuw amsterdam,SR,5.88,-55.08,1572484699,300.39,301.15,299.82,83,14,2.6
coahuayana,MX,18.62,-100.35,1572484699,298.47,298.47,298.47,79,57,0.97
nargana,PA,9.44,-78.59,1572484699,301.57,301.57,301.57,74,81,2.6
vitim,RU,59.44,112.57,1572484700,261.07,261.07,261.07,90,100,3.98
horodyshche,UA,50.76,29.29,1572484700,269.15,269.15,269.15,85,23,1
port lincoln,AU,-34.72,135.86,1572484700,302.76,302.76,302.76,21,79,11.96
neustadt,CH,47.05,8.31,1572484700,279.82,282.04,277.59,93,90,1
sangar,RU,63.92,127.47,1572484700,266.88,266.88,266.88,87,94,3.65
dashitou,CN,43.3,128.5,1572484700,280.91,280.91,280.91,68,0,8.33
mount isa,AU,-20.73,139.49,1572484700,304.15,304.15,304.15,18,0,3.1
sechura,PE,-5.56,-80.82,1572484700,290.75,290.75,290.75,85,42,5.41
mogotes,CO,6.47,-72.97,1572484700,289.54,289.54,289.54,94,92,0.52
muros,ES,42.77,-9.06,1572484701,289.52,291.48,288.15,100,90,2.1
xiamen,CN,24.46,118.07,1572484701,296.15,296.15,296.15,53,75,1
zamora,ES,41.51,-5.74,1572484701,286.89,287.15,286.48,93,75,2.6
mossendjo,CG,-2.95,12.72,1572484701,295.02,295.02,295.02,99,100,1.56
srednekolymsk,RU,67.46,153.71,1572484701,253.98,253.98,253.98,95,3,1.23
grand-santi,GF,4.27,-54.38,1572484701,296.66,296.66,296.66,95,71,0.9
hualmay,PE,-11.1,-77.61,1572484701,289.06,289.06,289.06,80,100,1.35
olinda,AU,-37.84,145.39,1572484702,302.97,304.82,300.37,22,0,8.7
amboasary,MG,-25.04,46.38,1572484702,297.15,297.15,297.15,100,75,5.1
yerbogachen,RU,61.28,108.01,1572484702,257.54,257.54,257.54,91,24,4.32
aklavik,CA,68.22,-135.01,1572484702,276.15,276.15,276.15,69,75,1.5
cockburn town,TC,21.46,-71.14,1572484702,300.67,300.67,300.67,75,0,6.8
acurenam,GA,1.03,10.67,1572484702,293.37,293.37,293.37,99,100,1.19
kainantu,PG,-6.29,145.87,1572484702,296.45,296.45,296.45,62,98,1.27
moose factory,CA,51.26,-80.61,1572484703,272.15,272.15,272.15,68,75,3.83
pisco,PE,-13.71,-76.2,1572484703,293.04,295.15,291.48,30,78,5.1
sosua,DO,19.77,-70.52,1572484703,298.17,299.82,297.15,94,20,5.31
thompson,CA,55.74,-97.86,1572484703,268.15,268.15,268.15,92,90,1.5
kodigenahalli,IN,13.72,77.39,1572484703,293.15,293.15,293.15,100,75,3.6
jalu,LY,29.03,21.55,1572484703,294.14,294.14,294.14,41,17,4.02
port blair,IN,11.67,92.75,1572484485,301.58,301.58,301.58,74,29,3.05
te anau,NZ,-45.41,167.72,1572484703,279.63,279.63,279.63,81,100,4.59
colchester,US,41.58,-72.33,1572484704,288.8,290.37,287.04,93,90,1.5
vredendal,ZA,-31.68,18.49,1572484704,287.58,287.58,287.58,56,0,1.78
goshen,US,41.58,-85.83,1572484704,278.78,280.15,277.15,93,90,3.6
lafiagi,NG,8.85,5.42,1572484704,297.4,297.4,297.4,85,90,0.86
maldonado,UY,-34.91,-54.96,1572484704,289.15,289.15,289.15,93,20,5.1
vardo,US,39.62,-77.74,1572484426,287.92,288.71,287.04,100,90,2.1
shingu,JP,33.72,135.99,1572484705,293.15,293.15,293.15,60,75,1
umm lajj,SA,25.02,37.27,1572484705,295.58,295.58,295.58,56,0,1.67
clyde river,CA,70.47,-68.59,1572484705,268.15,268.15,268.15,100,90,1.82
cumpana,RO,44.12,28.57,1572484705,280.27,282.59,279.15,93,90,7.7
isparta,TR,37.77,30.56,1572484705,281.15,281.15,281.15,61,0,2.6
sibolga,ID,1.74,98.78,1572484495,294.36,294.36,294.36,99,100,0.86
digha,IN,21.62,87.51,1572484705,297.61,297.61,297.61,74,36,4.09
hasaki,JP,35.73,140.83,1572484705,291.82,294.26,289.82,72,75,3.1
jacmel,HT,18.24,-72.54,1572484706,301.15,301.15,301.15,74,75,1
cauquenes,CL,-35.97,-72.32,1572484706,282.04,282.04,282.04,67,10,1.58
ostrovnoy,RU,68.05,39.51,1572484706,260.46,260.46,260.46,99,98,3.15
kargasok,RU,59.06,80.87,1572484706,266.11,266.11,266.11,87,3,2.32
portland,US,43.66,-70.25,1572484633,285.69,287.15,284.26,93,90,2.6
nago,IT,45.88,10.89,1572484706,282.12,286.15,274.82,71,75,2.1
arraial do cabo,BR,-22.97,-42.02,1572484706,297.67,298.15,297.15,83,77,5.7
ukiah,US,39.15,-123.21,1572484707,287.69,292.59,283.15,23,0,2.59
port hueneme,US,34.15,-119.2,1572484707,289.82,293.15,286.48,7,20,9.3
tevriz,RU,57.51,72.4,1572484707,267.89,267.89,267.89,87,65,1.48
tessalit,ML,20.2,1.01,1572484707,294.83,294.83,294.83,20,0,4.05
rosario,UY,-34.31,-57.35,1572484707,287.04,287.04,287.04,94,94,0.45
dryden,CA,49.79,-92.84,1572484707,267.15,267.15,267.15,79,90,3.6
kiunga,PG,-6.12,141.3,1572484707,297.21,297.21,297.21,88,100,0.15
nouadhibou,MR,20.93,-17.03,1572484708,299.15,299.15,299.15,50,0,8.7
barabai,ID,-2.59,115.38,1572484708,300.44,300.44,300.44,69,68,0.54
uvinza,TZ,-5.1,30.39,1572484708,291.63,291.63,291.63,92,0,1.6
victor harbor,AU,-35.55,138.62,1572484708,302.85,303.71,302.15,26,75,8.2
fort nelson,CA,58.81,-122.69,1572484708,281.15,281.15,281.15,45,75,6.2
srandakan,ID,-7.94,110.25,1572484709,299.55,299.55,299.55,70,47,2.75
forestville,CA,48.74,-69.09,1572484709,280.15,280.15,280.15,70,90,1.5
yumbe,UG,3.47,31.25,1572484709,292.87,292.87,292.87,92,100,0.86
yaan,NG,7.38,8.57,1572484709,296.7,296.7,296.7,95,99,2.46
kameno,BG,42.57,27.29,1572484710,286.04,286.15,285.93,87,90,2.6
bilibino,RU,68.06,166.44,1572484710,264.81,264.81,264.81,95,100,0.59
mianwali,PK,32.57,71.58,1572484710,295.87,295.87,295.87,40,3,2.7
vestmanna,FO,62.16,-7.17,1572484710,280.15,280.15,280.15,81,100,4.6
winslow,GB,51.94,-0.88,1572484710,279.08,281.15,275.93,93,100,3.6
tiarei,PF,-17.53,-149.33,1572484710,302.09,302.15,302.04,66,20,4.1
cherskiy,RU,68.75,161.3,1572484711,257.99,257.99,257.99,94,96,2.64
kaitangata,NZ,-46.28,169.85,1572484711,284.26,284.26,284.26,62,100,7.6
jining,CN,35.41,116.58,1572484711,289.82,289.82,289.82,30,0,1
katobu,ID,-4.94,122.53,1572484711,304.17,304.17,304.17,58,10,0.95
abha,SA,18.22,42.5,1572484711,286.68,287.15,286.15,93,5,0.19
mangla,IN,32.54,76.11,1572484711,287.15,287.15,287.15,39,0,3.16
daru,PG,-9.07,143.21,1572484712,300.86,300.86,300.86,78,100,3.94
marzuq,YE,14.4,46.47,1572484712,290.97,290.97,290.97,37,36,0.81
aswan,EG,24.09,32.9,1572484712,292.17,292.17,292.17,44,0,4.68
tigre,AR,-34.42,-58.58,1572484712,289.6,293.15,286.48,77,75,3.1
riyadh,SA,24.63,46.72,1572484506,296.15,296.15,296.15,78,0,2.6
sol-iletsk,RU,51.16,55,1572484712,278.72,278.72,278.72,80,100,5.96
itoman,JP,26.12,127.67,1572484713,299.26,300.15,298.71,65,40,7.2
tremedal,BR,-14.98,-41.41,1572484713,294.4,294.4,294.4,76,7,2.55
adamovka,RU,51.52,59.94,1572484713,281.66,281.66,281.66,69,100,6.1
matara,BI,-3.48,29.48,1572484713,287.05,287.05,287.05,83,64,1.15
shamary,RU,57.34,58.22,1572484713,268.8,268.8,268.8,65,100,4.91
qasigiannguit,GL,68.82,-51.19,1572484713,268.15,268.15,268.15,67,90,2.45
iqaluit,CA,63.75,-68.52,1572484713,270.56,271.15,269.82,86,90,5.7
aketi,CD,2.74,23.78,1572484714,293.79,293.79,293.79,99,100,1.8
mana,NG,13.03,5.27,1572484714,300.75,300.75,300.75,39,0,2
gladstone,AU,-23.84,151.26,1572484714,299.15,299.15,299.15,50,40,7.7
tateyama,JP,36.66,137.31,1572484714,291.81,292.04,291.15,52,40,3.1
khatanga,RU,71.98,102.47,1572484714,257.45,257.45,257.45,96,100,2.53
robertsport,LR,6.75,-11.37,1572484714,299.92,299.92,299.92,80,67,4.33
sabang,PH,13.8,121.11,1572484714,302.04,302.04,302.04,76,87,2.24
iki-burul,RU,45.82,44.65,1572484714,271.97,272.04,271.15,92,33,4
hirara,JP,24.8,125.28,1572484715,300.15,300.15,300.15,69,40,7.7
mandalgovi,MN,45.76,106.27,1572484715,274.75,274.75,274.75,74,0,0.75
dese,IT,45.53,12.3,1572484715,284.06,285.93,281.48,71,75,3.1
mount gambier,AU,-37.83,140.78,1572484536,301.15,301.15,301.15,32,100,9.3
petrivka,UA,46.91,30.72,1572484715,278.15,278.15,278.15,58,40,2
balakhninskiy,RU,58.01,114.28,1572484715,259.44,259.44,259.44,92,100,5.21
bathsheba,BB,13.22,-59.52,1572484715,299.15,299.15,299.15,88,20,4.1
batagay,RU,67.65,134.64,1572484716,249.9,249.9,249.9,97,0,0.4
berlevag,NO,70.86,29.09,1572484716,271.47,271.47,271.47,67,17,5.51
bundaberg,AU,-24.87,152.35,1572484716,299.52,299.82,299.15,44,90,5.7
igarka,RU,67.47,86.57,1572484716,262.62,262.62,262.62,94,100,6.16
falmouth,GB,50.16,-5.07,1572484682,285.25,286.15,284.26,100,100,8.7
nakusp,CA,50.24,-117.8,1572484716,270.37,270.37,270.37,67,96,1.07
huarmey,PE,-10.07,-78.15,1572484716,289.92,289.92,289.92,76,79,1.23
gamba,CN,28.28,88.52,1572484717,269.52,269.52,269.52,74,69,1.23
dalbandin,PK,28.9,64.41,1572484717,293.38,293.38,293.38,26,0,2.84
starokostyantyniv,UA,49.76,27.2,1572484717,272.81,272.81,272.81,81,18,2.13
mhango,TZ,-2.75,33.92,1572484717,293.75,293.75,293.75,75,55,0.82
tezu,IN,27.93,96.16,1572484717,291.62,291.62,291.62,58,65,1.21
necochea,AR,-38.55,-58.74,1572484717,280.73,281.48,280.37,93,0,2.28
hit,IQ,33.64,42.83,1572484717,292.81,292.81,292.81,52,0,3.71
geraldton,CA,49.72,-86.95,1572484718,270.15,270.15,270.15,53,90,3.1
lavumisa,ZA,-27.31,31.88,1572484718,295.15,295.15,295.15,78,98,0.5
plouzane,FR,48.38,-4.62,1572484718,287.11,287.15,287.04,93,90,4.1
ornskoldsvik,SE,63.29,18.72,1572484718,274.61,275.15,274.15,80,100,5.7
tiznit,MA,29.7,-9.73,1572484718,292.25,292.25,292.25,45,0,0.93
mumbwa,ZM,-14.99,27.06,1572484718,294.15,294.15,294.15,34,47,2.1
dera bugti,PK,29.03,69.15,1572484718,293.88,293.88,293.88,28,0,0.46
iwanai,JP,42.97,140.51,1572484719,282.11,282.11,282.11,87,96,3.28
duluth,US,46.77,-92.13,1572484719,271.06,272.59,269.26,58,90,1.5
college,US,64.86,-147.8,1572484719,270.11,271.15,268.71,86,90,5.7
codrington,AU,-28.95,153.24,1572484719,298.24,299.15,297.15,39,69,4.1
abapo,BO,-18.83,-63.47,1572484719,301.52,301.52,301.52,48,0,2.1
cantagallo,CO,7.38,-73.91,1572484719,297.31,297.31,297.31,96,80,0.9
shimoda,JP,34.7,138.93,1572484720,291.55,293.15,290.15,77,75,2.6
loukhi,RU,66.08,33.04,1572484720,266.21,266.21,266.21,92,38,2.17
eureka,US,40.8,-124.16,1572484423,286.76,290.15,283.15,23,1,4.1
roscommon,IE,53.63,-8.19,1572484720,280.93,280.93,280.93,99,99,3.88
agirish,RU,61.92,63.02,1572484721,265.38,265.38,265.38,84,0,3.62
vung tau,VN,10.35,107.08,1572484721,298.78,298.78,298.78,83,100,5.5
khandyga,RU,62.65,135.58,1572484721,269.87,269.87,269.87,82,100,1.57
chimore,BO,-16.98,-65.13,1572484721,303.93,303.93,303.93,54,91,2.4
lorengau,PG,-2.02,147.27,1572484722,302.44,302.44,302.44,66,35,1.83
luderitz,NA,-26.65,15.16,1572484722,287.15,287.15,287.15,67,21,5.7
sharjah,AE,25.36,55.39,1572484474,296.86,300.15,294.15,65,0,3.6
margate,AU,-43.03,147.26,1572484722,296.48,298.15,294.15,46,75,2.6
broken hill,AU,-31.97,141.45,1572484722,298.15,298.15,298.15,41,2,6.7
kahului,US,20.89,-156.47,1572484722,299.62,303.15,297.04,62,40,6.2
chapais,CA,49.78,-74.86,1572484534,272.15,272.15,272.15,86,90,1.59
klaksvik,FO,62.23,-6.59,1572484723,280.15,280.15,280.15,81,100,4.6
gorontalo,ID,0.54,123.06,1572484723,301.83,301.83,301.83,64,92,0.47
evensk,RU,61.92,159.24,1572484723,269.94,269.94,269.94,91,99,1.45
san ignacio,PE,-5.15,-79,1572484723,290.64,290.64,290.64,91,79,1.29
beloha,MG,-25.17,45.06,1572484723,295.37,295.37,295.37,84,100,4.55
eenhana,NA,-17.48,16.34,1572484723,295.77,295.77,295.77,49,96,0.12
bubaque,GW,11.28,-15.83,1572484723,303.29,303.29,303.29,62,32,2.34
cayce,US,33.97,-81.07,1572484724,295.25,296.48,294.15,94,90,2.1
takhli,TH,15.26,100.34,1572484724,293.53,293.53,293.53,78,51,1.34
sao francisco,BR,-25.65,-53.85,1572484724,302.15,302.15,302.15,62,62,2.1
nova olimpia,BR,-14.8,-57.29,1572484724,302.9,302.9,302.9,48,96,0.57
ponyri,RU,52.32,36.3,1572484724,270.36,270.36,270.36,68,44,5.38
black river,JM,18.03,-77.85,1572484724,300.36,301.15,299.82,78,20,3.6
ponta delgada,PT,37.73,-25.67,1572484724,295.15,295.15,295.15,88,20,9.3
merauke,ID,-8.49,140.4,1572484725,301.93,301.93,301.93,74,89,3.68
truth or consequences,US,33.13,-107.25,1572484725,279.71,280.37,278.71,9,1,4.6
walvis bay,NA,-22.95,14.51,1572484725,287.78,288.15,286.15,87,6,3.6
pierre,US,44.37,-100.35,1572484725,269.97,270.15,269.82,42,1,2.1
pangnirtung,CA,66.15,-65.72,1572484725,270.56,270.56,270.56,72,100,3.8
yumen,CN,40.29,97.04,1572484726,275.97,275.97,275.97,35,0,2.58
christchurch,NZ,-43.53,172.64,1572484726,286.69,287.15,284.82,62,45,6.2
boa vista,BR,2.82,-60.67,1572484726,303.15,303.15,303.15,66,20,1
bouca,CF,6.51,18.28,1572484726,294.8,294.8,294.8,84,72,0.66
saurimo,AO,-9.66,20.4,1572484726,291.3,291.3,291.3,95,97,1.18
huayang,CN,23.62,115.49,1572484726,290.79,290.79,290.79,60,100,1.46
russell,US,38.9,-98.86,1572484550,268.81,269.26,267.59,85,90,4.6
bhadrachalam,IN,17.67,80.89,1572484727,294.76,294.76,294.76,96,60,0.64
sungaipenuh,ID,-2.08,101.38,1572484727,290.86,290.86,290.86,96,97,0.36
kirovskiy,RU,45.09,133.51,1572484727,282.43,282.43,282.43,72,61,4.76
zlitan,LY,32.47,14.57,1572484727,295.07,295.07,295.07,68,0,2.91
marsh harbour,BS,26.54,-77.06,1572484727,299.85,299.85,299.85,83,0,7.15
kitob,UZ,39.12,66.88,1572484727,285.15,285.15,285.15,76,64,2.1
fethiye,TR,36.62,29.12,1572484727,285.15,285.15,285.15,93,0,2.6
leuna,DE,51.32,12.02,1572484728,272.86,274.26,270.93,100,22,2.6
savannah bight,HN,16.45,-85.85,1572484728,301.7,301.7,301.7,79,12,10.19
havre-saint-pierre,CA,50.23,-63.6,1572484728,278.15,278.15,278.15,80,90,2.1
mon,IN,26.73,95.03,1572484728,287.59,287.59,287.59,89,80,1.56
yuncheng,CN,35.03,111,1572484728,285.82,285.82,285.82,38,13,0.39
xam nua,LA,20.42,104.04,1572484728,284.93,284.93,284.93,78,98,0.68
omboue,GA,-1.57,9.26,1572484728,296.66,296.66,296.66,95,100,1.16
ayan,IR,38.23,44.7,1572484729,276.55,276.55,276.55,71,0,1.74
minab,IR,27.15,57.07,1572484729,298.3,299.15,297.15,83,0,0.5
balkanabat,TM,39.51,54.36,1572484729,284.14,284.14,284.14,76,8,0.51
kosai,JP,34.71,137.53,1572484729,292.05,293.15,290.15,77,75,1
erdenet,MN,49.03,104.04,1572484729,271.17,271.17,271.17,95,6,1.71
makakilo city,US,21.35,-158.09,1572484659,299.75,302.15,297.15,78,90,4.1
lermontovka,RU,47.15,134.34,1572484729,277.54,277.54,277.54,89,100,3.91
darfield,NZ,-43.49,172.11,1572484730,287.13,289.82,284.82,62,68,6.2
ayagoz,KZ,47.96,80.43,1572484730,278.62,278.62,278.62,58,61,2.25
deputatskiy,RU,69.3,139.9,1572484730,252.78,252.78,252.78,93,0,1.24
acajutla,SV,13.59,-89.83,1572484730,298.15,298.15,298.15,88,20,2.1
milford,US,42.14,-71.52,1572484699,287.72,288.71,287.04,100,90,2.6
bell ville,AR,-32.63,-62.69,1572484730,287.25,287.25,287.25,60,49,2.07
kieta,PG,-6.22,155.63,1572484730,302.03,302.03,302.03,70,23,3.09
peterhead,AU,-34.83,138.5,1572484730,303.44,304.26,302.15,26,26,8.2
kui buri,TH,12.07,99.86,1572484731,299.15,299.15,299.15,74,20,2.1
calabozo,VE,8.92,-67.43,1572484731,297.43,297.43,297.43,94,100,1.86
norman wells,CA,65.28,-126.83,1572484731,269.15,269.15,269.15,100,75,1.5
asosa,ET,10.07,34.53,1572484731,291.89,291.89,291.89,83,1,2.15
baykit,RU,61.68,96.39,1572484731,258.21,258.21,258.21,97,96,1.15
roebourne,AU,-20.77,117.15,1572484731,304.51,304.51,304.51,13,21,7.5
high level,CA,58.52,-117.13,1572484732,272.15,272.15,272.15,100,90,1
husavik,CA,50.56,-96.99,1572484732,269.76,270.37,269.26,76,99,2.88
ilo,PE,-17.65,-71.34,1572484732,288.97,288.97,288.97,85,100,2.55
vryburg,ZA,-26.96,24.73,1572484732,280.71,280.71,280.71,11,0,2.18
gezing,AT,47.92,13.13,1572484732,276.4,278.15,274.82,93,75,2.1
steamboat springs,US,40.48,-106.83,1572484506,256.76,259.15,253.15,83,1,5.7
zhuzhou,CN,27.84,113.15,1572484732,289.15,289.15,289.15,77,16,1
port hedland,AU,-20.31,118.58,1572484733,308.15,308.15,308.15,23,4,4.1
camocim,BR,-2.9,-40.84,1572484733,296.9,296.9,296.9,81,9,2.51
laguna,BZ,16.17,-88.94,1572484733,300.15,300.15,300.15,88,40,1.74
grand gaube,MU,-20.01,57.66,1572484733,294.11,295.15,293.15,78,20,1.5
puerto escondido,MX,15.86,-97.07,1572484733,298.15,298.15,298.15,69,75,2.6
onega,RU,63.91,38.09,1572484733,271.01,271.01,271.01,78,95,5.21
komsomolskiy,RU,67.55,63.78,1572484734,266.65,266.65,266.65,95,99,4.22
lac du bonnet,CA,50.25,-96.06,1572484734,270.37,270.37,270.37,76,99,1.82
port hardy,CA,50.7,-127.42,1572484734,280.15,280.15,280.15,81,75,1.02
cabra,ES,37.47,-4.43,1572484734,290.29,293.15,287.04,72,85,2.6
zeya,RU,53.74,127.27,1572484734,271.49,271.49,271.49,96,100,4.65
takoradi,GH,4.89,-1.75,1572484734,298.93,298.93,298.93,85,53,2.54
paraiso,BR,-0.03,-51.17,1572484734,303.15,303.15,303.15,70,20,5.1
haines junction,CA,60.75,-137.51,1572484735,271.72,271.72,271.72,95,97,3.85
kaeo,NZ,-35.1,173.78,1572484735,295.07,295.93,294.26,66,7,3.49
sterling,US,39,-77.4,1572484735,288.27,289.26,287.04,100,90,4.1
porto walter,BR,-8.27,-72.74,1572484735,298.87,298.87,298.87,65,53,1.46
hobyo,SO,5.35,48.53,1572484735,299.56,299.56,299.56,80,0,3.48
watertown,US,44.9,-97.12,1572484735,268.56,269.15,268.15,62,1,2.6
shatrovo,BG,42.29,22.98,1572484736,282.65,283.15,282.15,81,90,4.1
sirjan,IR,29.44,55.67,1572484736,284.81,284.81,284.81,64,6,2.29
ganganagar,IN,16.78,77.13,1572484736,295.43,295.43,295.43,91,100,1.84
elk river,US,45.3,-93.57,1572484736,271.35,272.59,270.37,58,90,2.29
salym,RU,60.06,71.48,1572484736,262,262,262,93,0,2.26
srinagar,IN,34.07,74.82,1572484736,279.92,279.92,279.92,66,22,0.86
adre,TD,13.47,22.2,1572484736,294.88,294.88,294.88,23,0,5.28
general cepeda,MX,25.38,-101.48,1572484736,291.61,292.04,291.15,82,40,8.2
stokke,NO,59.22,10.3,1572484737,274.67,277.15,272.59,69,51,3.6
bandarbeyla,SO,9.49,50.81,1572484737,299.78,299.78,299.78,64,86,2.74
qaqortoq,GL,60.72,-46.03,1572484737,274.15,274.15,274.15,80,100,2.1
soyo,AO,-6.13,12.37,1572484737,298.68,298.68,298.68,83,100,0.91
nhamunda,BR,-2.19,-56.71,1572484737,301.06,301.06,301.06,64,69,1.6
vysha,RU,53.85,42.38,1572484737,269.72,269.72,269.72,77,100,5.73
zeerust,ZA,-25.54,26.07,1572484737,288.16,288.16,288.16,7,37,2.78
tucumcari,US,35.17,-103.73,1572484640,268.15,268.15,268.15,79,20,3.6
south sioux city,US,42.47,-96.41,1572484589,270.36,272.15,268.15,58,1,2.6
iquitos,PE,-3.75,-73.25,1572484738,298.15,298.15,298.15,94,100,1.5
okato,NZ,-39.19,173.88,1572484738,288.15,288.15,288.15,57,0,3.13
corner brook,CA,48.95,-57.95,1572484738,281.12,282.15,280.37,76,90,5.7
puro,PH,13.13,123.76,1572484738,300.19,300.19,300.19,82,94,3.14
camacha,PT,33.08,-16.33,1572484738,294.15,294.15,294.15,88,20,1.89
paita,PE,-5.09,-81.11,1572484738,291.25,291.25,291.25,78,40,5.19
arrifes,PT,37.77,-25.7,1572484738,295.15,295.15,295.15,88,20,9.3
ovalle,CL,-30.6,-71.2,1572484739,284.13,284.13,284.13,57,100,0.78
palmer,AU,-34.85,139.16,1572484739,303.45,304.26,302.15,26,60,8.2
adrar,DZ,27.87,-0.29,1572484739,293.15,293.15,293.15,30,0,5.7
shelburne,CA,44.08,-80.2,1572484733,278.44,279.82,277.04,100,90,4.49
mehamn,NO,71.03,27.85,1572484739,265.52,265.52,265.52,78,16,4.18
kitui,KE,-1.37,38.02,1572484739,292.39,292.39,292.39,91,64,0.8
aleksandrov gay,RU,50.14,48.57,1572484740,274.19,274.19,274.19,57,31,7.87
pak phanang,TH,8.35,100.2,1572484740,299.15,299.15,299.15,94,20,1
cefalu,IT,38.04,14.02,1572484740,288.66,291.48,285.93,83,100,1.34
niamey,NE,13.52,2.11,1572484740,304.15,304.15,304.15,52,29,2.6
quthing,LS,-30.4,27.7,1572484740,275.44,275.44,275.44,37,0,1.78
constantine,DZ,36.36,6.61,1572484740,284.15,284.15,284.15,93,20,1
meadow lake,CA,54.13,-108.44,1572484741,272.15,272.15,272.15,68,90,5.1
kayerkan,RU,69.35,87.76,1572484741,265.15,265.15,265.15,85,75,8
liwale,TZ,-9.8,37.92,1572484741,293.09,293.09,293.09,80,0,1.25
san pedro de lloc,PE,-7.42,-79.5,1572484741,290.64,290.64,290.64,80,97,6.51
manglaur,IN,29.79,77.88,1572484741,289.15,289.15,289.15,93,0,1.42
kegums,LV,56.75,24.72,1572484741,272.97,273.15,272.59,81,40,3.1
filadelfia,PY,-22.35,-60.04,1572484742,307.71,307.71,307.71,30,12,2.7
mach,PK,29.87,67.33,1572484742,290.35,290.35,290.35,31,0,0.69
benavente,ES,42,-5.67,1572484742,285.15,285.15,285.15,93,99,3.6
champerico,MX,16.38,-93.6,1572484742,297.15,297.15,297.15,88,75,0.81
valley city,US,46.92,-98,1572484742,268.66,270.15,267.15,73,40,2.59
zhigansk,RU,66.77,123.37,1572484742,263.82,263.82,263.82,70,100,4.6
lauda-konigshofen,DE,49.57,9.7,1572484742,274.53,277.04,273.15,100,1,1.5
afzalpur,IN,17.2,76.36,1572484742,295.32,295.32,295.32,89,84,2.26
panama city,US,30.16,-85.65,1572484743,298.72,299.26,297.59,88,75,4.6
chernyshevskiy,RU,63.01,112.47,1572484743,260.96,260.96,260.96,80,100,5.68
mallaig,CA,54.21,-111.37,1572484743,271.91,271.91,271.91,77,100,4.24
kaitong,CN,44.81,123.15,1572484743,281.06,281.06,281.06,39,0,9.96
abu samrah,SY,35.3,37.18,1572484743,290.27,290.27,290.27,71,0,2.3
jiuquan,CN,39.73,98.49,1572484743,274.02,274.02,274.02,36,61,0.55
solnechnyy,RU,50.72,136.64,1572484743,274.46,274.46,274.46,81,100,1.19
talcahuano,CL,-36.72,-73.12,1572484744,285.15,285.15,285.15,71,0,4.6
sayyan,YE,15.17,44.32,1572484744,285.75,285.75,285.75,31,7,2.31
mlonggo,ID,-6.53,110.7,1572484744,303.25,304.82,302.15,62,20,1.5
suifenhe,CN,44.39,131.16,1572484744,281.19,281.19,281.19,66,48,7.37
kathmandu,NP,27.71,85.32,1572484505,286.15,286.15,286.15,100,20,1
emerald,AU,-23.53,148.16,1572484744,299.63,300.15,299.26,42,75,5.1
magdalena,PH,14.2,121.43,1572484745,303.12,304.26,302.04,66,75,3.1
barcelos,BR,-0.97,-62.93,1572484745,299.36,299.36,299.36,76,72,0.79
faya,SA,18.39,42.45,1572484745,286.67,287.15,286.15,93,5,1.59
ekibastuz,KZ,51.72,75.32,1572484745,280.74,280.74,280.74,61,77,1.38
sarangani,PH,5.4,125.46,1572484745,300.81,300.81,300.81,73,98,1.46
asyut,EG,27.18,31.19,1572484745,291.15,291.15,291.15,72,0,4.1
armidale,AU,-30.51,151.67,1572484745,297.59,297.59,297.59,15,42,2.68
manturovo,RU,58.33,44.76,1572484745,267.65,267.65,267.65,87,100,6.02
boguchar,RU,49.93,40.55,1572484746,271.21,271.21,271.21,68,0,4.76
bengbu,CN,32.92,117.38,1572484746,290.33,290.33,290.33,34,0,2.84
batemans bay,AU,-35.71,150.18,1572484746,300.08,302.59,296.48,72,15,1.34
dwarka,IN,28.58,77.04,1572484746,297.27,299.26,294.15,73,40,1.31
houma,CN,35.63,111.36,1572484746,284.64,284.64,284.64,39,0,0.48
inuvik,CA,68.36,-133.71,1572484746,276.15,276.15,276.15,69,75,1.5
waddan,LY,29.16,16.14,1572484746,294.25,294.25,294.25,34,0,2.11
vuktyl,RU,63.86,57.31,1572484746,265.69,265.69,265.69,94,96,3.21
sur,OM,22.57,59.53,1572484747,298.6,298.6,298.6,82,85,4.53
churapcha,RU,62,132.43,1572484747,263.67,263.67,263.67,94,70,1.78
lukavica,BA,44.76,18.19,1572484747,279.26,279.26,279.26,85,100,0.89
miraflores,PE,-16.39,-71.52,1572484747,287.15,287.15,287.15,49,37,2.1
amapa,HN,15.09,-87.97,1572484747,300.61,300.93,300.15,78,20,3.1
atasu,KZ,48.68,71.64,1572484747,282.32,282.32,282.32,67,100,4.3
kirakira,SB,-10.46,161.92,1572484747,299.14,299.14,299.14,86,100,4.04
krasnogorsk,RU,55.82,37.34,1572484748,269.88,270.93,269.15,86,90,3
rawson,AR,-43.3,-65.11,1572484748,287.37,287.37,287.37,48,2,9.49
razole,IN,16.48,81.84,1572484748,296.99,296.99,296.99,90,75,0.88
puertollano,ES,38.69,-4.11,1572484748,289.54,289.82,289.26,84,100,0.77
tongren,CN,27.72,109.18,1572484748,287.03,287.03,287.03,79,1,0.59
mweka,CD,-4.85,21.56,1572484748,292.93,292.93,292.93,94,54,0.19
la plata,AR,-34.92,-57.95,1572484582,290.03,291.15,288.15,93,76,2.1
pontianak,ID,-0.02,109.34,1572484749,298.15,298.15,298.15,100,40,0.51
winona,CA,43.21,-79.65,1572484749,281.1,283.71,278.15,100,90,4.6
copiapo,CL,-27.37,-70.33,1572484749,286.15,286.15,286.15,87,75,4.1
izhma,RU,65.01,53.91,1572484749,266.18,266.18,266.18,97,100,1.9
barra do corda,BR,-5.5,-45.25,1572484749,300.51,300.51,300.51,51,72,0.74
mogadishu,SO,2.04,45.34,1572484749,300.23,300.23,300.23,82,0,3.95
skogn,NO,63.7,11.19,1572484749,276.47,277.15,275.37,93,75,8.2
vostok,RU,46.45,135.83,1572484750,276.25,276.25,276.25,92,100,2.79
qinhuangdao,CN,39.94,119.59,1572484750,288.52,288.52,288.52,27,18,2.87
hervey bay,AU,-25.3,152.85,1572484750,299.54,299.82,299.15,44,90,5.7
saint anthony,US,43.97,-111.68,1572484750,265.73,270.15,261.15,57,1,1.5
apiai,BR,-24.51,-48.84,1572484750,293.91,293.91,293.91,83,48,1.07
taltal,CL,-25.41,-70.49,1572484750,286.02,286.02,286.02,81,1,1.01
brekstad,NO,63.69,9.67,1572484751,277.68,279.82,275.37,75,40,8.2
gat,SN,14.69,-16.54,1572484751,299.76,300.15,299.15,61,0,4.6
codajas,BR,-3.84,-62.06,1572484751,297.76,297.76,297.76,90,29,1.01
along,IN,28.17,94.8,1572484751,287.21,287.21,287.21,91,59,2
tianpeng,CN,28.88,112.34,1572484751,290.08,290.08,290.08,56,21,0.46
arlit,NE,18.74,7.39,1572484672,304.7,304.7,304.7,13,99,3.75
santa maria,BR,-16.02,-48.01,1572484752,295.25,297.15,293.71,60,40,4.1
micheweni,TZ,-4.97,39.83,1572484752,300.18,300.18,300.18,79,0,3.72
henderson,US,36.04,-114.98,1572484547,282.37,284.15,279.26,8,1,2.6
osijek,HR,45.55,18.69,1572484752,278.84,279.26,278.15,93,40,2.1
auki,NG,12.18,6.51,1572484752,298.51,298.51,298.51,56,24,0.87
bembereke,BJ,10.23,2.66,1572484753,295.85,295.85,295.85,86,36,2.34
morgan city,US,29.7,-91.21,1572484753,297.42,298.71,295.93,100,1,3.1
thinadhoo,MV,0.53,72.93,1572484753,300.36,300.36,300.36,81,100,5.26
ouro preto do oeste,BR,-10.75,-62.22,1572484753,299.26,299.26,299.26,69,47,0.96
guarumal,EC,-1.88,-79.65,1572484753,298.84,299.15,298.71,69,20,5.7
kungurtug,RU,50.6,97.53,1572484754,270.71,270.71,270.71,76,71,1.43
mwingi,KE,-0.93,38.07,1572484754,291.96,291.96,291.96,89,82,2.67
kargil,PK,34.56,76.13,1572484754,271.62,271.62,271.62,71,98,1.71
havoysund,NO,71,24.66,1572484754,269.15,269.15,269.15,79,50,6.2
vechelde,DE,52.26,10.37,1572484754,272.1,273.71,270.37,92,0,2.1
chicama,PE,-7.84,-79.15,1572484754,290.15,290.15,290.15,88,75,4.6
araouane,ML,18.9,-3.53,1572484755,297,297,297,21,0,5.65
kysyl-syr,RU,63.9,122.77,1572484755,265.82,265.82,265.82,94,100,2.94
fujinomiya,JP,35.24,138.62,1572484755,290.57,290.93,290.15,77,75,1
brigantine,US,39.41,-74.36,1572484755,289.81,291.15,288.71,100,90,2.07
beyneu,KZ,45.32,55.19,1572484755,283,283,283,84,60,5.62
masuguru,MZ,-11.38,38.46,1572484755,295.81,295.81,295.81,75,18,2.68
bilma,NE,18.69,12.92,1572484756,298.39,298.39,298.39,17,0,2.25
satipo,PE,-11.26,-74.64,1572484756,290.2,290.2,290.2,92,100,1.68
vodnyy,RU,63.51,53.41,1572484756,265.69,265.69,265.69,95,68,1.75
road town,VG,18.42,-64.62,1572484756,299.87,301.15,298.71,69,40,3.6
farafangana,MG,-22.82,47.83,1572484756,298.26,298.26,298.26,86,87,4.24
dogondoutchi,NE,13.64,4.03,1572484756,302.5,302.5,302.5,40,53,1.69
virginia beach,US,36.85,-75.98,1572484756,291.2,292.15,290.15,93,90,3.6
san pedro de macoris,DO,18.46,-69.3,1572484622,298.49,299.82,296.15,83,20,2.1
santa vitoria do palmar,BR,-33.52,-53.37,1572484757,287.93,287.93,287.93,87,89,6.81
jutai,BR,-1.71,-47.89,1572484757,298.58,298.58,298.58,72,67,2.56
point pleasant,US,40.08,-74.07,1572484757,289.65,290.37,288.71,100,20,0.31
ayorou,NE,14.73,0.92,1572484757,305.56,305.56,305.56,29,82,3.88
kalabo,ZM,-15,22.67,1572484757,297.96,297.96,297.96,52,68,2.87
lat yao,TH,15.75,99.79,1572484757,294.87,294.87,294.87,81,68,0.72
taunsa,PK,30.7,70.65,1572484758,295.55,295.55,295.55,28,0,2.28
cururupu,BR,-1.82,-44.87,1572484758,295.79,295.79,295.79,93,29,0.99
agustin codazzi,CO,10.03,-73.24,1572484580,301.15,301.15,301.15,74,40,4.1
khanpur,PK,28.65,70.66,1572484677,296.98,296.98,296.98,29,0,1.95
puerto madero,AR,-34.61,-58.36,1572484758,289.6,293.15,286.48,77,75,3.1
visnes,NO,59.36,5.22,1572484758,278.55,280.93,275.93,93,100,4.1
bajil,ES,38.23,-2.07,1572484758,287,287,287,54,92,2.28
uberaba,BR,-19.75,-47.94,1572484758,296.11,296.11,296.11,79,39,6.57
teknaf,BD,20.86,92.31,1572484759,294.1,294.1,294.1,99,100,0.34
pirapora do bom jesus,BR,-23.4,-47,1572484759,298.45,301.48,295.15,83,20,5.7
mildura,AU,-34.18,142.16,1572484759,299.53,301.15,299.26,34,0,8.7
sarakhs,TM,36.54,61.16,1572484759,288.15,288.15,288.15,82,100,8.2
sri aman,MY,1.24,111.46,1572484759,296.22,297.15,295.93,100,75,0.5
cooma,AU,-36.24,149.13,1572484760,300.15,300.15,300.15,10,0,4.1
candido mendes,BR,-1.45,-45.72,1572484760,298.53,298.53,298.53,80,76,2.44
tazovskiy,RU,67.47,78.7,1572484760,260.56,260.56,260.56,94,87,6.21
ovca,RS,44.89,20.54,1572484760,278.47,279.15,278.15,93,75,2.1
atocha,AR,-24.82,-65.48,1572484760,292.04,293.15,291.15,82,90,3.6
wakkanai,JP,45.41,141.67,1572484760,286.15,286.15,286.15,62,75,5.7
dindori,IN,22.94,81.08,1572484761,289.87,289.87,289.87,66,21,0.63
luena,AO,-11.78,19.91,1572484761,290.41,290.41,290.41,86,51,0.96
tselina,RU,46.53,41.03,1572484761,275.43,275.43,275.43,64,7,2.39
jiangyou,CN,31.78,104.73,1572484761,283.44,283.44,283.44,87,100,0.57
manavalakurichi,IN,8.13,77.3,1572484761,296.15,296.15,296.15,100,90,2.1
kharan,PK,28.58,65.42,1572484761,295.55,295.55,295.55,39,0,3.51
honiara,SB,-9.43,159.96,1572484761,302.15,302.15,302.15,79,75,2.6
lata,IN,30.78,78.62,1572484762,269.29,269.29,269.29,44,0,1.73
nishihara,JP,35.74,139.53,1572484762,291.92,293.71,289.15,77,75,1
lilongwe,MW,-13.97,33.79,1572484762,293.15,293.15,293.15,49,25,3.1
cap malheureux,MU,-19.98,57.61,1572484762,294.14,295.15,293.15,78,20,1.5
beckley,US,37.78,-81.19,1572484762,289.3,291.15,288.15,100,90,5.68
inhumas,BR,-16.36,-49.5,1572484762,295.12,297.15,294.15,64,29,2.1
kedrovyy,RU,56.17,91.82,1572484762,272.15,272.15,272.15,92,75,2
bud,NO,62.91,6.91,1572484763,277.2,281.15,272.59,87,90,4.6
inhambane,MZ,-23.87,35.38,1572484763,296.47,296.47,296.47,85,92,7.41
hammerfest,NO,70.66,23.68,1572484763,269.15,269.15,269.15,79,39,6.2
saint-augustin,CA,45.63,-73.98,1572484763,284.57,286.15,283.15,93,90,2.6
rafraf,TN,37.19,10.18,1572484763,289,290.15,288.15,88,20,2.1
jieshi,CN,22.82,115.83,1572484763,295.93,295.93,295.93,65,100,1.9
temnikov,RU,54.63,43.21,1572484763,269.57,269.57,269.57,81,100,5.7
brae,GB,60.4,-1.35,1572484764,280.28,281.15,279.15,87,100,5.7
vysokogornyy,RU,50.1,139.13,1572484764,271.44,271.44,271.44,92,74,1.19
bria,CF,6.54,21.99,1572484764,292.97,292.97,292.97,76,0,1.07
ongandjera,NA,-17.88,15.07,1572484764,299.16,299.16,299.16,35,100,2.07
raudeberg,NO,61.99,5.14,1572484764,280.05,280.37,279.82,94,100,2.68
peniche,PT,39.36,-9.38,1572484764,291.75,293.15,290.93,100,75,2.84
ulladulla,AU,-35.36,150.48,1572484764,300.59,302.59,298.15,39,16,4.6
yemelyanovo,RU,56.17,92.69,1572484764,272.15,272.15,272.15,92,75,2
tabou,CI,4.42,-7.36,1572484765,296.87,296.87,296.87,94,99,1.23
doha,QA,25.29,51.53,1572484765,300.45,302.15,299.15,70,0,2.1
liaozhong,CN,41.51,122.73,1572484765,286.15,286.15,286.15,66,0,2
ankazoabo,MG,-22.29,44.51,1572484765,294.99,294.99,294.99,86,35,1.37
saint-pierre,FR,48.95,4.24,1572484765,280.63,281.15,279.82,87,90,5.1
sioux lookout,CA,50.1,-91.92,1572484543,267.53,268.15,267.15,73,90,3.1
fengxian,CN,33.91,106.52,1572484765,280.31,280.31,280.31,64,100,1.16
barabash,RU,43.19,131.5,1572484765,288.15,288.15,288.15,58,7,4
tromso,NO,69.65,18.96,1572484766,267.97,271.15,265.37,86,40,1.5
nyurba,RU,63.29,118.35,1572484766,264.55,264.55,264.55,92,100,3.01
bolshaya sosnova,RU,57.67,54.6,1572484766,269.03,269.03,269.03,60,100,5.88
miri,NG,10.31,9.75,1572484766,297.13,297.13,297.13,44,70,1.13
okha,RU,53.59,142.95,1572484767,278.39,278.39,278.39,92,100,8.51
deszk,HU,46.22,20.24,1572484767,275.93,275.93,275.93,94,72,3.02
saint-francois,FR,46.42,3.91,1572484767,284.33,285.15,283.71,93,90,1.32
alamos,AR,-36.9,-62.36,1572484767,286.22,286.22,286.22,32,0,3.25
gurlan,UZ,41.84,60.39,1572484767,282.61,284.15,281.15,81,52,4.1
whitehorse,CA,60.72,-135.06,1572484767,274.6,275.15,273.71,74,75,5.7
seymchan,RU,62.93,152.39,1572484767,264.63,264.63,264.63,88,35,1.3
waingapu,ID,-9.65,120.26,1572484768,300.67,300.67,300.67,75,27,4.07
kushima,JP,31.5,131.29,1572484768,289.84,293.15,287.04,64,75,3.1
kartuzy,PL,54.33,18.2,1572484768,274.64,277.59,270.37,80,20,3.1
gorin,BF,12.34,-0.67,1572484768,301.97,301.97,301.97,44,46,3
yar-sale,RU,66.83,70.83,1572484768,263.29,263.29,263.29,88,100,5.58
santa rosa,AR,-36.62,-64.29,1572484768,285.8,285.8,285.8,30,0,1.88
wonthaggi,AU,-38.6,145.59,1572484768,303.29,304.82,300.93,34,9,5.66
mackay,CA,53.65,-115.58,1572484769,277.15,277.15,277.15,60,75,2.6
duayaw nkwanta,GH,7.17,-2.1,1572484769,295.06,295.06,295.06,98,100,0.97
carutapera,BR,-1.2,-46.02,1572484769,300.66,300.66,300.66,76,0,7.88
praia,BR,-20.25,-43.81,1572484769,294.51,296.15,293.15,69,75,3.1
vladivostok,RU,43.12,131.89,1572484543,288.15,288.15,288.15,58,0,4
ayer tawar,MY,4.3,100.75,1572484769,298.18,300.15,297.04,83,75,1.5
pacific grove,US,36.62,-121.92,1572484769,289.97,293.15,287.04,32,1,4.11
